[
  {
    "id": "1",
    "name": "Toqué!",
    "city": "Montreal",
    "address": "900 Place Jean-Paul-Riopelle, Montreal, QC H2Z 2B2",
    "avg_cost_per_person": 60,
    "duration": 120,
    "service_type": "restaurant",
    "info": "Contemporary French",
    "latitude": 45.504826,
    "longitude": -73.562297
  },
  {
    "id": "2",
    "name": "Joe Beef",
    "city": "Montreal",
    "address": "2491 Notre-Dame St W, Montreal, QC H3J 1N6",
    "avg_cost_per_person": 75,
    "duration": 90,
    "service_type": "restaurant",
    "info": "French, Steakhouse",
    "latitude": 45.479375,
    "longitude": -73.579297
  },
  {
    "id": "3",
    "name": "Schwartz's Deli",
    "city": "Montreal",
    "address": "3895 St Laurent Blvd, Montreal, QC H2W 1X9",
    "avg_cost_per_person": 20,
    "duration": 30,
    "service_type": "restaurant",
    "info": "Deli, Jewish",
    "latitude": 45.516755,
    "longitude": -73.578582
  },
  {
    "id": "4",
    "name": "L'Express",
    "city": "Montreal",
    "address": "3927 Saint-Denis St, Montreal, QC H2W 2M4",
    "avg_cost_per_person": 50,
    "duration": 90,
    "service_type": "restaurant",
    "info": "French, Bistro",
    "latitude": 45.51923,
    "longitude": -73.58069
  },
  {
    "id": "5",
    "name": "Au Pied de Cochon",
    "city": "Montreal",
    "address": "536 Duluth Ave E, Montreal, QC H2L 1A9",
    "avg_cost_per_person": 65,
    "duration": 120,
    "service_type": "restaurant",
    "info": "Quebecois, French",
    "latitude": 45.52081,
    "longitude": -73.57387
  },
  {
    "id": "6",
    "name": "Le Filet",
    "city": "Montreal",
    "address": "219 Avenue du Mont-Royal O, Montreal, QC H2T 2T2",
    "avg_cost_per_person": 70,
    "duration": 100,
    "service_type": "restaurant",
    "info": "French, Seafood",
    "latitude": 45.524126,
    "longitude": -73.591608
  },
  {
    "id": "7",
    "name": "Damas",
    "city": "Montreal",
    "address": "1201 Avenue Van Horne, Montreal, QC H2V 1K4",
    "avg_cost_per_person": 50,
    "duration": 90,
    "service_type": "restaurant",
    "info": "Syrian, Middle Eastern",
    "latitude": 45.521837,
    "longitude": -73.605383
  },
  {
    "id": "8",
    "name": "Le Club Chasse et P\u00eache",
    "city": "Montreal",
    "address": "423 Rue St-Claude, Montreal, QC H3J 1P1",
    "avg_cost_per_person": 80,
    "duration": 120,
    "service_type": "restaurant",
    "info": "French, Contemporary",
    "latitude": 45.504118,
    "longitude": -73.554899
  },
  {
    "id": "9",
    "name": "Pizzeria Napoletana",
    "city": "Montreal",
    "address": "1312 Rue de la Montagne, Montreal, QC H3G 1Z2",
    "avg_cost_per_person": 25,
    "duration": 45,
    "service_type": "restaurant",
    "info": "Italian, Pizza",
    "latitude": 45.497242,
    "longitude": -73.577342
  },
  {
    "id": "10",
    "name": "La Banquise",
    "city": "Montreal",
    "address": "994 Rue Rachel E, Montreal, QC H2J 2J3",
    "avg_cost_per_person": 15,
    "duration": 30,
    "service_type": "restaurant",
    "info": "Poutine, Comfort food",
    "latitude": 45.52732,
    "longitude": -73.580136
  },
  {
    "id": "11",
    "name": "Le Saint-Amable",
    "city": "Montreal",
    "address": "469 Rue St-Amable, Montreal, QC H2Y 1E4",
    "avg_cost_per_person": 40,
    "duration": 90,
    "service_type": "restaurant",
    "info": "French, Bistro",
    "latitude": 45.5074205,
    "longitude": -73.5529686
  },
  {
    "id": "12",
    "name": "Bouillon Bilk",
    "city": "Montreal",
    "address": "1595 Rue Saint-Denis, Montreal, QC H2X 3K3",
    "avg_cost_per_person": 55,
    "duration": 90,
    "service_type": "restaurant",
    "info": "French, Contemporary",
    "latitude": 45.51484629999999,
    "longitude": -73.56257699999999
  },
  {
    "id": "13",
    "name": "Taverne F",
    "city": "Montreal",
    "address": "1201 Boulevard de Maisonneuve O, Montreal, QC H3A 1M8",
    "avg_cost_per_person": 45,
    "duration": 90,
    "service_type": "restaurant",
    "info": "French, Bar",
    "latitude": 45.5000012,
    "longitude": -73.5759399
  },
  {
    "id": "14",
    "name": "Marché de la Villette",
    "city": "Montreal",
    "address": "5757 Avenue de l'Esplanade, Montreal, QC H2T 1R8",
    "avg_cost_per_person": 30,
    "duration": 60,
    "service_type": "restaurant",
    "info": "French, Casual",
    "latitude": 45.5249282,
    "longitude": -73.6038192
  },
  {
    "id": "15",
    "name": "Buvette Chez Simone",
    "city": "Montreal",
    "address": "4863 Boulevard St-Laurent, Montreal, QC H2T 1R6",
    "avg_cost_per_person": 40,
    "duration": 75,
    "service_type": "restaurant",
    "info": "French, Small plates",
    "latitude": 45.5220676,
    "longitude": -73.5905066
  },
  {
    "id": "16",
    "name": "La Crémaillère",
    "city": "Montreal",
    "address": "1557 Rue des Pins O, Montreal, QC H2W 1C4",
    "avg_cost_per_person": 50,
    "duration": 90,
    "service_type": "restaurant",
    "info": "French, Fine dining",
    "latitude": 45.4978345,
    "longitude": -73.586992799999
  },
  {
    "id": "17",
    "name": "Auberge Saint-Gabriel",
    "city": "Montreal",
    "address": "426 St Gabriel St, Montreal, QC H2Y 2Z9",
    "avg_cost_per_person": 65,
    "duration": 120,
    "service_type": "restaurant",
    "info": "French, Historic",
    "latitude": 45.5064353,
    "longitude": -73.5541156
  },
  {
    "id": "18",
    "name": "Les 400 Coups",
    "city": "Montreal",
    "address": "400 Notre-Dame St E, Montreal, QC H2Y 1C8",
    "avg_cost_per_person": 75,
    "duration": 120,
    "service_type": "restaurant",
    "info": "French, Fine dining",
    "latitude": 45.5102157,
    "longitude": -73.5523221
  },
  {
    "id": "19",
    "name": "Vieux-Port Steakhouse",
    "city": "Montreal",
    "address": "39 Rue Saint-Paul O, Montreal, QC H2Y 1Y8",
    "avg_cost_per_person": 50,
    "duration": 90,
    "service_type": "restaurant",
    "info": "Steakhouse, Canadian",
    "latitude": 45.5051462,
    "longitude": -73.5540577
  },
  {
    "id": "20",
    "name": "Le Bremner",
    "city": "Montreal",
    "address": "361 Rue St-Paul E, Montreal, QC H2Y 1H3",
    "avg_cost_per_person": 65,
    "duration": 100,
    "service_type": "restaurant",
    "info": "French, Seafood",
    "latitude": 45.5094072,
    "longitude": -73.55173409999999
  },
  {
    "id": "21",
    "name": "L'Atelier de Joël Robuchon",
    "city": "Montreal",
    "address": "1400 Boulevard René-Lévesque O, Montreal, QC H3G 1T6",
    "avg_cost_per_person": 120,
    "duration": 150,
    "service_type": "restaurant",
    "info": "French, Fine dining",
    "latitude": 45.4950978,
    "longitude": -73.5734021
  },
  {
    "id": "22",
    "name": "Le Robin Square",
    "city": "Montreal",
    "address": "620 Cherrier St, Montreal, QC H2L 1H5",
    "avg_cost_per_person": 50,
    "duration": 90,
    "service_type": "restaurant",
    "info": "French, Contemporary",
    "latitude": 45.5196878,
    "longitude": -73.5683328
  },
  {
    "id": "23",
    "name": "L'Académie",
    "city": "Montreal",
    "address": "1182 Sainte-Catherine St W, Montreal, QC H3B 1K3",
    "avg_cost_per_person": 30,
    "duration": 60,
    "service_type": "restaurant",
    "info": "Italian, Pizza",
    "latitude": 45.4989871,
    "longitude": -73.5737458
  },
  {
    "id": "24",
    "name": "La Petite Boucherie",
    "city": "Montreal",
    "address": "1987 Rue du Centre, Montreal, QC H3H 1P3",
    "avg_cost_per_person": 40,
    "duration": 75,
    "service_type": "restaurant",
    "info": "Steakhouse",
    "latitude": 45.4820118,
    "longitude": -73.5638464
  },
  {
    "id": "25",
    "name": "Le Marché du Chef",
    "city": "Montreal",
    "address": "1360 Avenue des Pins O, Montreal, QC H2W 1S8",
    "avg_cost_per_person": 35,
    "duration": 60,
    "service_type": "restaurant",
    "info": "French, Casual",
    "latitude": 45.5012424,
    "longitude": -73.5846933
  },
  {
    "id": "26",
    "name": "Ristorante Beatrice",
    "city": "Montreal",
    "address": "1255 Avenue Bernard, Montreal, QC H2V 1V4",
    "avg_cost_per_person": 50,
    "duration": 90,
    "service_type": "restaurant",
    "info": "Italian, Mediterranean",
    "latitude": 45.5199061,
    "longitude": -73.6089275
  },
  {
    "id": "27",
    "name": "Bistro Le Dayan",
    "city": "Montreal",
    "address": "4046 Boulevard St-Laurent, Montreal, QC H2W 1Y7",
    "avg_cost_per_person": 45,
    "duration": 60,
    "service_type": "restaurant",
    "info": "French, Bistro",
    "latitude": 45.5169554,
    "longitude": -73.5797788
  },
  {
    "id": "28",
    "name": "La Vinerie",
    "city": "Montreal",
    "address": "4729 Rue Fabre, Montreal, QC H2J 3Y3",
    "avg_cost_per_person": 40,
    "duration": 60,
    "service_type": "restaurant",
    "info": "Italian, Wine bar",
    "latitude": 45.5329353,
    "longitude": -73.57852849999999
  },
  {
    "id": "29",
    "name": "Le Bouchon de L'Innocence",
    "city": "Montreal",
    "address": "309 Rue Saint-Paul E, Montreal, QC H2Y 1H5",
    "avg_cost_per_person": 50,
    "duration": 90,
    "service_type": "restaurant",
    "info": "French, Bistro",
    "latitude": 45.5087572,
    "longitude": -73.55204429999999
  },
  {
    "id": "30",
    "name": "Le Continental",
    "city": "Montreal",
    "address": "1250 Rue de la Montagne, Montreal, QC H3G 1Z3",
    "avg_cost_per_person": 60,
    "duration": 100,
    "service_type": "restaurant",
    "info": "French, Fine dining",
    "latitude": 45.4976069,
    "longitude": -73.574939
  },
  {
    "id": "31",
    "name": "Le Petit Plateau",
    "city": "Montreal",
    "address": "259 Avenue Laurier E, Montreal, QC H2T 1B3",
    "avg_cost_per_person": 35,
    "duration": 75,
    "service_type": "restaurant",
    "info": "French, Casual",
    "latitude": 45.5254597,
    "longitude": -73.5908529
  },
  {
    "id": "32",
    "name": "Le 6éme Sens",
    "city": "Montreal",
    "address": "1415 Rue Crescent, Montreal, QC H3G 2B6",
    "avg_cost_per_person": 65,
    "duration": 90,
    "service_type": "restaurant",
    "info": "French, Contemporary",
    "latitude": 45.4975822,
    "longitude": -73.57607039999999
  },
  {
    "id": "33",
    "name": "La Table de la Petite S\u0153ur",
    "city": "Montreal",
    "address": "1432 Rue Mackay, Montreal, QC H3G 2H3",
    "avg_cost_per_person": 50,
    "duration": 90,
    "service_type": "restaurant",
    "info": "French, Bistro",
    "latitude": 45.496102,
    "longitude": -73.57789819999999
  },
  {
    "id": "34",
    "name": "Garde Manger",
    "city": "Montreal",
    "address": "408 St François Xavier St, Montreal, QC H2Y 2S9",
    "avg_cost_per_person": 70,
    "duration": 120,
    "service_type": "restaurant",
    "info": "French, Seafood",
    "latitude": 45.5026916,
    "longitude": -73.5557108
  },
  {
    "id": "35",
    "name": "Le Coq de l'Est",
    "city": "Montreal",
    "address": "1441 Rue Beaubien E, Montreal, QC H2G 3A5",
    "avg_cost_per_person": 50,
    "duration": 90,
    "service_type": "restaurant",
    "info": "French, Casual",
    "latitude": 45.5414032,
    "longitude": -73.5982962
  },
  {
    "id": "36",
    "name": "Le Petit Italien",
    "city": "Montreal",
    "address": "3645 Rue St-Denis, Montreal, QC H2X 3L2",
    "avg_cost_per_person": 35,
    "duration": 60,
    "service_type": "restaurant",
    "info": "Italian, Pizza",
    "latitude": 45.5181704,
    "longitude": -73.5697357
  },
  {
    "id": "37",
    "name": "Le St-Urbain",
    "city": "Montreal",
    "address": "229 Avenue Laurier O, Montreal, QC H2T 2N2",
    "avg_cost_per_person": 45,
    "duration": 90,
    "service_type": "restaurant",
    "info": "French, Contemporary",
    "latitude": 45.5207561,
    "longitude": -73.595169
  },
  {
    "id": "38",
    "name": "Brasserie T!",
    "city": "Montreal",
    "address": "111 Rue St-Paul O, Montreal, QC H2Y 1Z6",
    "avg_cost_per_person": 50,
    "duration": 90,
    "service_type": "restaurant",
    "info": "French, Brasserie",
    "latitude": null,
    "longitude": null
  },
  {
    "id": "39",
    "name": "Les Cours de la Gastronomie",
    "city": "Montreal",
    "address": "4070 Rue St-Denis, Montreal, QC H2W 2M5",
    "avg_cost_per_person": 60,
    "duration": 120,
    "service_type": "restaurant",
    "info": "French, Gourmet",
    "latitude": null,
    "longitude": null
  },
  {
    "id": "40",
    "name": "Chez Lév\u00eaque",
    "city": "Montreal",
    "address": "1034 Avenue Laurier O, Montreal, QC H2V 2L1",
    "avg_cost_per_person": 50,
    "duration": 90,
    "service_type": "restaurant",
    "info": "French, Bistro",
    "latitude": null,
    "longitude": null
  },
  {
    "id": "41",
    "name": "La Distillerie",
    "city": "Montreal",
    "address": "301 Rue Ontario E, Montreal, QC H2X 1H9",
    "avg_cost_per_person": 40,
    "duration": 60,
    "service_type": "restaurant",
    "info": "Bar, Cocktail",
    "latitude": null,
    "longitude": null
  },
  {
    "id": "42",
    "name": "L'Empanada",
    "city": "Montreal",
    "address": "358 Rue Sherbrooke E, Montreal, QC H2X 1E5",
    "avg_cost_per_person": 20,
    "duration": 30,
    "service_type": "restaurant",
    "info": "Latin, South American",
    "latitude": null,
    "longitude": null
  },
  {
    "id": "43",
    "name": "La Piazzetta",
    "city": "Montreal",
    "address": "3978 Rue St-Denis, Montreal, QC H2W 2M4",
    "avg_cost_per_person": 25,
    "duration": 60,
    "service_type": "restaurant",
    "info": "Italian, Pizza",
    "latitude": null,
    "longitude": null
  },
  {
    "id": "44",
    "name": "L'Orignal",
    "city": "Montreal",
    "address": "479 Rue St-Alexandre, Montreal, QC H2Y 3J4",
    "avg_cost_per_person": 60,
    "duration": 90,
    "service_type": "restaurant",
    "info": "Quebecois, Canadian",
    "latitude": null,
    "longitude": null
  },
  {
    "id": "45",
    "name": "L'Atelier de Joël Robuchon",
    "city": "Montreal",
    "address": "1400 Boulevard René-Lévesque O, Montreal, QC H3G 1T6",
    "avg_cost_per_person": 120,
    "duration": 150,
    "service_type": "restaurant",
    "info": "French, Fine dining",
    "latitude": null,
    "longitude": null
  },
  {
    "id": "46",
    "name": "Montreal Plaza",
    "city": "Montreal",
    "address": "6230 St-Hubert, Montreal, QC H2S 2M1",
    "avg_cost_per_person": 55,
    "duration": 90,
    "service_type": "restaurant",
    "info": "Contemporary, French",
    "latitude": null,
    "longitude": null
  },
  {
    "id": "47",
    "name": "Chasse-Galerie",
    "city": "Montreal",
    "address": "1240 Rue de la Montagne, Montreal, QC H3G 1Z1",
    "avg_cost_per_person": 70,
    "duration": 90,
    "service_type": "restaurant",
    "info": "Canadian, French",
    "latitude": null,
    "longitude": null
  },
  {
    "id": "48",
    "name": "Le Garde-Manger",
    "city": "Montreal",
    "address": "408 St François Xavier St, Montreal, QC H2Y 2S9",
    "avg_cost_per_person": 75,
    "duration": 120,
    "service_type": "restaurant",
    "info": "Seafood, French",
    "latitude": null,
    "longitude": null
  },
  {
    "id": "49",
    "name": "Les Deux Gamins",
    "city": "Montreal",
    "address": "1392 Rue Ontario E, Montreal, QC H2L 1S6",
    "avg_cost_per_person": 40,
    "duration": 75,
    "service_type": "restaurant",
    "info": "French, Bistro",
    "latitude": null,
    "longitude": null
  },
  {
    "id": "50",
    "name": "Le Mtl Grill",
    "city": "Montreal",
    "address": "80 Boulevard de Maisonneuve E, Montreal, QC H2X 1C3",
    "avg_cost_per_person": 35,
    "duration": 60,
    "service_type": "restaurant",
    "info": "Grill, Canadian",
    "latitude": null,
    "longitude": null
  },
  {
    "id": "51",
    "name": "Mount Royal",
    "city": "Montreal",
    "address": "Montreal, QC H3H 1A1",
    "avg_cost_per_person": 0,
    "duration": 120,
    "service_type": "sightseeing",
    "info": "Hike or take a stroll up to the summit for a panoramic view of the city.",
    "latitude": 45.497718,
    "longitude": -73.590304
  },
  {
    "id": "52",
    "name": "Old Montreal (Vieux-Montréal)",
    "city": "Montreal",
    "address": "Montreal, QC H2Y 3Y8",
    "avg_cost_per_person": 0,
    "duration": 180,
    "service_type": "sightseeing",
    "info": "Historic district filled with cobblestone streets, old buildings, and the Notre-Dame Basilica.",
    "latitude": null,
    "longitude": null
  },
  {
    "id": "53",
    "name": "Biodome de Montreal",
    "city": "Montreal",
    "address": "4777 Pierre-de-Coubertin Ave, Montreal, QC H1V 1B3",
    "avg_cost_per_person": 20,
    "duration": 90,
    "service_type": "sightseeing",
    "info": "Explore the ecosystems of the Americas, including a tropical rainforest and Arctic habitat.",
    "latitude": 45.562935,
    "longitude": -73.551541
  },
  {
    "id": "54",
    "name": "Montreal Museum of Fine Arts",
    "city": "Montreal",
    "address": "1380 Sherbrooke St W, Montreal, QC H3G 1J5",
    "avg_cost_per_person": 15,
    "duration": 120,
    "service_type": "sightseeing",
    "info": "A world-renowned museum featuring fine art from various eras and regions.",
    "latitude": null,
    "longitude": null
  },
  {
    "id": "55",
    "name": "La Ronde",
    "city": "Montreal",
    "address": "22 Chemin Macdonald, Montreal, QC H3C 6A3",
    "avg_cost_per_person": 45,
    "duration": 180,
    "service_type": "sightseeing",
    "info": "Amusement park with thrilling rides and attractions for all ages.",
    "latitude": null,
    "longitude": null
  },
  {
    "id": "56",
    "name": "Montreal Science Centre",
    "city": "Montreal",
    "address": "2 Rue de la Commune O, Montreal, QC H2Y 4B2",
    "avg_cost_per_person": 20,
    "duration": 90,
    "service_type": "sightseeing",
    "info": "Interactive exhibits and hands-on activities focusing on science and technology.",
    "latitude": null,
    "longitude": null
  },
  {
    "id": "57",
    "name": "The Montreal Botanical Garden",
    "city": "Montreal",
    "address": "4101 Rue Sherbrooke E, Montreal, QC H1X 2B2",
    "avg_cost_per_person": 20,
    "duration": 120,
    "service_type": "sightseeing",
    "info": "Explore 22 themed gardens and a large collection of plants from around the world.",
    "latitude": null,
    "longitude": null
  },
  {
    "id": "58",
    "name": "Jean-Talon Market",
    "city": "Montreal",
    "address": "7070 Avenue Henri-Julien, Montreal, QC H2S 3S3",
    "avg_cost_per_person": 0,
    "duration": 60,
    "service_type": "sightseeing",
    "info": "One of the largest public markets in North America, featuring fresh produce and local specialties.",
    "latitude": null,
    "longitude": null
  },
  {
    "id": "59",
    "name": "Notre-Dame Basilica of Montreal",
    "city": "Montreal",
    "address": "110 Notre-Dame St W, Montreal, QC H2Y 1T1",
    "avg_cost_per_person": 10,
    "duration": 60,
    "service_type": "sightseeing",
    "info": "A magnificent Gothic Revival church known for its stunning architecture and stained glass.",
    "latitude": null,
    "longitude": null
  },
  {
    "id": "60",
    "name": "Atwater Market",
    "city": "Montreal",
    "address": "138 Atwater Ave, Montreal, QC H4C 2G3",
    "avg_cost_per_person": 0,
    "duration": 60,
    "service_type": "sightseeing",
    "info": "A historic market offering a range of fresh food, gourmet products, and artisanal goods.",
    "latitude": null,
    "longitude": null
  },
  {
    "id": "61",
    "name": "Montreal Planetarium",
    "city": "Montreal",
    "address": "4801 Avenue Pierre-de-Coubertin, Montreal, QC H1V 3T5",
    "avg_cost_per_person": 18,
    "duration": 90,
    "service_type": "sightseeing",
    "info": "Explore the cosmos through immersive exhibits and shows.",
    "latitude": null,
    "longitude": null
  },
  {
    "id": "62",
    "name": "Saint Joseph's Oratory of Mount Royal",
    "city": "Montreal",
    "address": "3800 Queen Mary Rd, Montreal, QC H3V 1H6",
    "avg_cost_per_person": 0,
    "duration": 90,
    "service_type": "sightseeing",
    "info": "A beautiful basilica offering stunning views of the city.",
    "latitude": null,
    "longitude": null
  },
  {
    "id": "63",
    "name": "Old Port of Montreal",
    "city": "Montreal",
    "address": "Old Montreal, Montreal, QC H2Y 2E2",
    "avg_cost_per_person": 0,
    "duration": 120,
    "service_type": "sightseeing",
    "info": "A historic waterfront district offering shops, restaurants, and boat tours.",
    "latitude": null,
    "longitude": null
  },
  {
    "id": "64",
    "name": "Mount Royal Chalet",
    "city": "Montreal",
    "address": "1260 Remembrance Rd, Montreal, QC H3H 1A1",
    "avg_cost_per_person": 0,
    "duration": 60,
    "service_type": "sightseeing",
    "info": "An iconic lookout offering a panoramic view of the city and its surrounding area.",
    "latitude": null,
    "longitude": null
  },
  {
    "id": "65",
    "name": "The Underground City (RESO)",
    "city": "Montreal",
    "address": "Downtown Montreal, Montreal, QC",
    "avg_cost_per_person": 0,
    "duration": 60,
    "service_type": "sightseeing",
    "info": "Explore the world\u2019s largest underground complex with shops, restaurants, and galleries.",
    "latitude": null,
    "longitude": null
  },
  {
    "id": "66",
    "name": "Montreal Holocaust Museum",
    "city": "Montreal",
    "address": "5151 Chemin de la C\u00f4te-Sainte-Catherine, Montreal, QC H3W 1M6",
    "avg_cost_per_person": 10,
    "duration": 60,
    "service_type": "sightseeing",
    "info": "Learn about the history of the Holocaust through exhibitions and survivor testimonies.",
    "latitude": null,
    "longitude": null
  },
  {
    "id": "67",
    "name": "Lachine Canal",
    "city": "Montreal",
    "address": "Lachine, Montreal, QC",
    "avg_cost_per_person": 0,
    "duration": 120,
    "service_type": "sightseeing",
    "info": "A scenic waterway perfect for biking, walking, or kayaking.",
    "latitude": null,
    "longitude": null
  },
  {
    "id": "68",
    "name": "Place des Arts",
    "city": "Montreal",
    "address": "175 Rue Sainte-Catherine O, Montreal, QC H2X 1Y9",
    "avg_cost_per_person": 25,
    "duration": 90,
    "service_type": "sightseeing",
    "info": "A major cultural complex offering theaters, music venues, and art galleries.",
    "latitude": null,
    "longitude": null
  },
  {
    "id": "69",
    "name": "The Montreal Clock Tower",
    "city": "Montreal",
    "address": "Old Port of Montreal, Montreal, QC H2Y 2E2",
    "avg_cost_per_person": 5,
    "duration": 30,
    "service_type": "sightseeing",
    "info": "A historic clock tower offering great views of Old Montreal and the harbor.",
    "latitude": null,
    "longitude": null
  },
  {
    "id": "70",
    "name": "McGill University",
    "city": "Montreal",
    "address": "845 Sherbrooke St W, Montreal, QC H3A 0G4",
    "avg_cost_per_person": 0,
    "duration": 60,
    "service_type": "sightseeing",
    "info": "A prestigious university with beautiful grounds and historic architecture.",
    "latitude": null,
    "longitude": null
  },
  {
    "id": "71",
    "name": "The Montreal Museum of Contemporary Art",
    "city": "Montreal",
    "address": "185 Sainte-Catherine St W, Montreal, QC H2X 3X5",
    "avg_cost_per_person": 15,
    "duration": 90,
    "service_type": "sightseeing",
    "info": "A museum dedicated to contemporary art with a diverse range of exhibitions.",
    "latitude": null,
    "longitude": null
  },
  {
    "id": "72",
    "name": "Montreal's Chinatown",
    "city": "Montreal",
    "address": "De La Gauchetière St, Montreal, QC H3B 1C7",
    "avg_cost_per_person": 0,
    "duration": 60,
    "service_type": "sightseeing",
    "info": "A vibrant neighborhood full of Asian restaurants, shops, and cultural landmarks.",
    "latitude": null,
    "longitude": null
  },
  {
    "id": "73",
    "name": "Basilique Saint-Patrick",
    "city": "Montreal",
    "address": "460 René-Lévesque Blvd W, Montreal, QC H2Z 1E5",
    "avg_cost_per_person": 0,
    "duration": 60,
    "service_type": "sightseeing",
    "info": "A beautiful neo-Gothic church with intricate stained-glass windows.",
    "latitude": null,
    "longitude": null
  },
  {
    "id": "74",
    "name": "Montreal Olympic Park",
    "city": "Montreal",
    "address": "4141 Pierre-de-Coubertin Ave, Montreal, QC H1V 3N7",
    "avg_cost_per_person": 15,
    "duration": 120,
    "service_type": "sightseeing",
    "info": "Home to the 1976 Olympics, featuring a tower, stadium, and biodome.",
    "latitude": null,
    "longitude": null
  },
  {
    "id": "75",
    "name": "La Grande Roue de Montréal",
    "city": "Montreal",
    "address": "Old Port of Montreal, Montreal, QC H2Y 4B2",
    "avg_cost_per_person": 25,
    "duration": 30,
    "service_type": "sightseeing",
    "info": "A giant Ferris wheel offering sweeping views of Montreal and the St. Lawrence River.",
    "latitude": null,
    "longitude": null
  },
  {
    "id": "76",
    "name": "St. Lawrence River Cruise",
    "city": "Montreal",
    "address": "Old Port of Montreal, Montreal, QC H2Y 2E2",
    "avg_cost_per_person": 30,
    "duration": 90,
    "service_type": "sightseeing",
    "info": "Take a boat cruise on the St. Lawrence River with spectacular views of the city.",
    "latitude": null,
    "longitude": null
  },
  {
    "id": "77",
    "name": "Lachine Rapids",
    "city": "Montreal",
    "address": "Lachine, Montreal, QC",
    "avg_cost_per_person": 0,
    "duration": 120,
    "service_type": "sightseeing",
    "info": "A natural wonder where the Lachine Canal meets the St. Lawrence River.",
    "latitude": null,
    "longitude": null
  },
  {
    "id": "78",
    "name": "La Fontaine Park",
    "city": "Montreal",
    "address": "3933 Avenue du Parc La Fontaine, Montreal, QC H2L 3B5",
    "avg_cost_per_person": 0,
    "duration": 90,
    "service_type": "sightseeing",
    "info": "A large park with walking paths, a pond, and green spaces.",
    "latitude": null,
    "longitude": null
  },
  {
    "id": "79",
    "name": "Montreal Biodome",
    "city": "Montreal",
    "address": "4777 Pierre-de-Coubertin Ave, Montreal, QC H1V 1B3",
    "avg_cost_per_person": 20,
    "duration": 90,
    "service_type": "sightseeing",
    "info": "A museum with a variety of ecosystems and species from the Americas.",
    "latitude": 45.562935,
    "longitude": -73.551541
  },
  {
    "id": "80",
    "name": "Montreal Insectarium",
    "city": "Montreal",
    "address": "4581 Rue Sherbrooke E, Montreal, QC H1X 2B2",
    "avg_cost_per_person": 10,
    "duration": 60,
    "service_type": "sightseeing",
    "info": "A museum dedicated to insects, featuring live displays and educational exhibits.",
    "latitude": null,
    "longitude": null
  }
]
